,city,lat,Lng,Max Temp,Humidity,Cloudiness,Wind Speed,Country,Date
0,ostrovnoy,68.0531,39.5131,9.8,68,88,8.85,RU,1627219717
1,mahebourg,-20.4081,57.7,23.16,64,40,5.14,MU,1627219886
2,qaanaaq,77.484,-69.3632,4.13,70,77,3.22,GL,1627219887
3,zhuhai,22.2769,113.5678,31.09,84,20,4.63,CN,1627219736
4,cape town,-33.9258,18.4232,23.23,12,0,2.57,ZA,1627219601
5,atuona,-9.8,-139.0333,25.36,70,36,9.97,PF,1627219889
6,flinders,-34.5833,150.8552,11.88,58,100,9.39,AU,1627219890
7,opuwo,-18.0607,13.84,26.5,16,0,6.15,NA,1627219748
8,tiksi,71.6872,128.8694,8.26,76,83,1.29,RU,1627219891
9,pushkinskiye gory,57.0209,28.9103,26.04,33,36,1.08,RU,1627219892
10,aykhal,66.0,111.5,23.23,53,99,4.06,RU,1627219893
11,castro,-24.7911,-50.0119,19.63,42,0,4.49,BR,1627219893
12,avarua,-21.2078,-159.775,24.03,83,90,4.12,CK,1627219695
13,saskylakh,71.9167,114.0833,16.91,56,73,3.51,RU,1627219895
14,constitucion,-35.3333,-72.4167,11.18,92,75,7.33,CL,1627219896
15,albany,42.6001,-73.9662,21.32,93,98,0.45,US,1627219772
16,vilyuysk,63.7553,121.6247,17.6,57,0,1.98,RU,1627219897
17,ushuaia,-54.8,-68.3,3.81,81,40,3.6,AR,1627219898
18,bambous virieux,-20.3428,57.7575,23.14,64,40,5.14,MU,1627219898
19,kodinsk,58.6881,99.1844,22.12,58,63,1.76,RU,1627219899
20,teknaf,20.8624,92.3058,27.14,90,100,3.23,BD,1627219900
21,busselton,-33.65,115.3333,14.49,67,4,8.25,AU,1627219901
22,ambon,-3.6954,128.1814,26.08,89,40,2.06,ID,1627219902
23,maragogi,-9.0122,-35.2225,25.31,78,14,6.36,BR,1627219694
24,fallon,39.4735,-118.7774,25.81,28,90,4.12,US,1627219903
25,kantang,7.4054,99.5156,27.05,94,20,1.03,TH,1627219904
26,colonelganj,27.1333,81.7,32.24,63,89,3.58,IN,1627219738
27,punta arenas,-53.15,-70.9167,2.06,87,90,4.12,CL,1627219743
28,rikitea,-23.1203,-134.9692,21.19,64,92,1.66,PF,1627219906
29,new norfolk,-42.7826,147.0587,5.37,54,98,4.24,AU,1627219688
30,gobabis,-22.45,18.9667,20.05,25,0,6.12,NA,1627219907
31,qingdao,36.0986,120.3719,27.78,74,0,2.0,CN,1627219908
32,port hardy,50.6996,-127.4199,11.1,100,75,1.03,CA,1627219908
33,arman,59.7,150.1667,11.37,99,100,3.14,RU,1627219909
34,mamakan,57.8161,114.0028,17.72,69,42,1.58,RU,1627219910
35,bethel,41.3712,-73.414,21.06,89,90,0.45,US,1627219911
36,clinton,42.587,-82.9199,25.46,92,20,1.34,US,1627219911
37,varhaug,58.6147,5.6457,26.59,66,100,1.03,NO,1627219912
38,ayan,56.45,138.1667,14.53,97,100,1.05,RU,1627219913
39,mayor pablo lagerenza,-19.9309,-60.7718,31.59,28,0,8.31,PY,1627219914
40,hermanus,-34.4187,19.2345,17.79,56,100,1.33,ZA,1627219914
41,torbay,47.6666,-52.7314,17.16,90,90,3.09,CA,1627219915
42,yellowknife,62.456,-114.3525,12.38,76,20,2.06,CA,1627219815
43,kruisfontein,-34.0033,24.7314,20.44,28,38,2.01,ZA,1627219917
44,puerto ayora,-0.7393,-90.3518,21.97,88,33,3.13,EC,1627219917
45,rosita,13.9268,-84.4032,26.28,82,91,1.36,NI,1627219918
46,beloha,-25.1667,45.05,18.14,61,26,6.61,MG,1627219919
47,port elizabeth,-33.918,25.5701,23.16,27,0,1.54,ZA,1627219920
48,port alfred,-33.5906,26.891,20.96,37,47,2.68,ZA,1627219920
49,garchitorena,13.8804,123.6946,26.97,87,67,3.11,PH,1627219921
50,kodiak,57.79,-152.4072,8.15,98,70,0.88,US,1627219922
51,mar del plata,-38.0023,-57.5575,13.38,65,90,1.79,AR,1627219800
52,taybad,34.74,60.7756,37.43,9,0,12.76,IR,1627219923
53,cabo san lucas,22.8909,-109.9124,28.78,75,1,1.79,MX,1627219924
54,tiarei,-17.5333,-149.3333,22.01,68,3,3.92,PF,1627219925
55,khatanga,71.9667,102.5,14.14,68,16,3.98,RU,1627219926
56,pisco,-13.7,-76.2167,17.23,82,90,2.06,PE,1627219927
57,kolyvan,55.3053,82.7391,26.14,81,30,2.79,RU,1627219928
58,hofn,64.2539,-15.2082,13.01,76,20,6.17,IS,1627219929
59,bontang,0.1333,117.5,25.95,85,14,3.89,ID,1627219930
60,sault sainte marie,46.5168,-84.3333,19.16,84,1,3.6,CA,1627219874
61,zhigansk,66.7697,123.3711,15.22,55,62,1.38,RU,1627219932
62,thompson,55.7435,-97.8558,9.09,87,20,3.09,CA,1627219933
63,pevek,69.7008,170.3133,1.45,92,100,4.99,RU,1627219934
64,nanortalik,60.1432,-45.2371,7.06,79,100,5.45,GL,1627219695
65,bilibino,68.0546,166.4372,4.94,86,6,2.51,RU,1627219935
66,dikson,73.5069,80.5464,4.24,87,9,2.89,RU,1627219713
67,hambantota,6.1241,81.1185,29.19,79,75,6.17,LK,1627219937
68,beja,36.7256,9.1817,44.36,8,70,0.74,TN,1627219937
69,fortuna,40.5982,-124.1573,12.74,94,90,0.0,US,1627219938
70,ponta do sol,32.6667,-17.1,28.17,69,3,0.56,PT,1627219696
71,qasigiannguit,68.8193,-51.1922,7.14,60,67,3.18,GL,1627219940
72,butaritari,3.0707,172.7902,27.69,78,10,4.8,KI,1627219940
73,virginia beach,36.8529,-75.978,27.04,71,40,5.66,US,1627219821
74,hobyo,5.3505,48.5268,25.76,70,88,11.78,SO,1627219942
75,saint george,37.1041,-113.5841,24.64,71,1,1.34,US,1627219713
76,pontes e lacerda,-15.2261,-59.3353,32.06,27,0,2.67,BR,1627219943
77,khor,47.8861,134.9464,24.49,81,100,1.87,RU,1627219944
78,crotone,39.0851,17.1178,32.97,31,0,4.12,IT,1627219944
79,baglung,28.2719,83.5898,23.54,97,100,0.77,NP,1627219945
80,raglan,-37.8,174.8833,13.51,84,100,5.96,NZ,1627219946
81,jamestown,42.097,-79.2353,22.88,98,97,1.95,US,1627219661
82,sur,22.5667,59.5289,33.61,59,36,2.3,OM,1627219947
83,araouane,18.9048,-3.5265,40.74,20,98,4.23,ML,1627219948
84,emerald,-23.5333,148.1667,13.08,45,57,1.54,AU,1627219949
85,launceston,-41.45,147.1667,6.56,84,40,1.34,AU,1627219950
86,nikolskoye,59.7035,30.7861,24.66,41,84,3.38,RU,1627219950
87,ambilobe,-13.2,49.05,24.28,58,94,1.18,MG,1627219951
88,cidreira,-30.1811,-50.2056,21.39,56,17,2.55,BR,1627219952
89,ternate,0.8,127.4,27.54,79,100,3.62,ID,1627219953
90,tarauaca,-8.1614,-70.7656,29.06,53,46,0.27,BR,1627219953
91,bella vista,36.4295,-94.2316,26.5,93,90,2.68,US,1627219954
92,xichang,27.8964,102.2634,19.61,88,13,1.53,CN,1627219955
93,antioch,36.2066,36.1572,34.9,38,0,5.56,TR,1627219956
94,najran,17.4924,44.1277,37.36,16,100,9.1,SA,1627219956
95,agirish,61.9247,63.0231,12.84,56,50,4.46,RU,1627219957
96,mataura,-46.1927,168.8643,6.66,88,100,2.26,NZ,1627219958
97,katsuura,35.1333,140.3,27.84,85,5,4.83,JP,1627219747
98,shalinskoye,55.7228,93.7594,18.76,85,4,1.64,RU,1627219959
99,barrow,71.2906,-156.7887,5.01,96,90,3.09,US,1627219803
100,sorong,-0.8833,131.25,25.39,82,100,3.7,ID,1627219961
101,kingston,17.997,-76.7936,29.56,74,20,0.89,JM,1627219961
102,ketchikan,55.3422,-131.6461,11.26,93,90,1.54,US,1627219898
103,kapaa,22.0752,-159.319,26.99,85,75,1.79,US,1627219963
104,mbigou,-1.9005,11.906,28.31,45,74,2.58,GA,1627219963
105,yakeshi,49.2833,120.7333,14.06,89,1,0.24,CN,1627219964
106,hilo,19.7297,-155.09,23.78,97,90,3.09,US,1627219965
107,whitehorse,60.7161,-135.0538,6.43,81,40,1.54,CA,1627219818
108,bonthe,7.5264,-12.505,27.04,73,98,4.71,SL,1627219966
109,bara,10.3744,10.7288,30.88,59,99,2.8,NG,1627219967
110,lompoc,34.6391,-120.4579,15.87,90,90,0.45,US,1627219674
111,port blair,11.6667,92.75,27.82,84,100,8.42,IN,1627219968
112,bredasdorp,-34.5322,20.0403,21.62,37,100,1.54,ZA,1627219969
113,thinadhoo,0.5333,72.9333,27.84,71,65,2.71,MV,1627219970
114,koumac,-20.5667,164.2833,20.61,81,6,3.74,NC,1627219971
115,faanui,-16.4833,-151.75,25.51,65,7,4.88,PF,1627219971
116,xam nua,20.4197,104.0439,20.68,99,100,0.55,LA,1627219972
117,east london,-33.0153,27.9116,21.52,43,0,3.6,ZA,1627219973
118,sao filipe,14.8961,-24.4956,23.79,70,77,2.58,CV,1627219974
119,deputatskiy,69.3,139.9,7.11,79,10,2.17,RU,1627219974
120,chuy,-33.6971,-53.4616,15.77,95,100,2.21,UY,1627219975
121,sitka,57.0531,-135.33,11.94,87,90,1.54,US,1627219976
122,forio,40.7342,13.8646,34.68,81,77,2.24,IT,1627219977
123,russkaya polyana,49.417,31.9201,24.43,53,93,1.98,UA,1627219978
124,san felipe,10.3399,-68.7425,28.41,62,100,2.78,VE,1627219978
125,arraial do cabo,-22.9661,-42.0278,23.98,64,20,9.26,BR,1627219720
126,margate,51.3813,1.3862,22.7,91,58,0.45,GB,1627219980
127,aklavik,68.2191,-135.0107,12.46,81,87,7.49,CA,1627219980
128,lokosovo,61.1333,74.8167,14.26,98,100,5.02,RU,1627219981
129,paita,-5.0892,-81.1144,20.31,77,34,4.46,PE,1627219982
130,cravo norte,6.3017,-70.2041,25.03,82,100,1.82,CO,1627219983
131,motygino,58.1831,94.7592,22.43,58,38,2.01,RU,1627219983
132,west wendover,40.7391,-114.0733,20.56,37,1,2.57,US,1627219984
133,adrar,20.5022,-10.0711,43.86,8,37,3.1,MR,1627219985
134,melfi,40.9965,15.6514,35.83,14,79,5.36,IT,1627219986
135,kibaya,-5.3,36.5667,21.77,34,62,3.77,TZ,1627219987
136,iqaluit,63.7506,-68.5145,5.85,93,90,2.68,CA,1627219987
137,lavrentiya,65.5833,-171.0,6.79,99,100,3.43,RU,1627219988
138,morondava,-20.2833,44.2833,25.19,61,8,6.74,MG,1627219989
139,vaini,-21.2,-175.2,20.09,100,20,0.51,TO,1627219990
140,georgetown,5.4112,100.3354,30.5,73,20,2.06,MY,1627219755
141,sanchazi,42.0817,126.6003,22.3,78,100,0.87,CN,1627219991
142,sarai mir,26.0167,82.9167,30.99,64,100,0.96,IN,1627219992
143,yichun,47.7,128.9,19.17,97,100,0.3,CN,1627219993
144,plainview,40.7765,-73.4673,22.49,80,90,1.79,US,1627219835
145,comodoro rivadavia,-45.8667,-67.5,5.92,52,0,5.66,AR,1627219994
146,nardaran,40.5561,50.0056,29.8,58,0,11.32,AZ,1627219995
147,nagua,19.3832,-69.8474,30.25,83,40,0.0,DO,1627219809
148,ibra,22.6906,58.5334,34.92,35,71,4.16,OM,1627219996
149,ganzhou,28.8184,115.4327,26.42,80,3,1.65,CN,1627219997
150,talnakh,69.4865,88.3972,12.54,91,100,1.7,RU,1627219998
151,coahuayana,18.7333,-103.6833,26.71,87,100,0.81,MX,1627219998
152,sinnamary,5.3833,-52.95,25.65,87,100,1.46,GF,1627219999
153,porto novo,6.4965,2.6036,28.9,64,89,5.33,BJ,1627220000
154,havoysund,70.9963,24.6622,9.49,79,92,4.42,NO,1627220001
155,bjornevatn,69.6672,29.9847,12.19,54,20,5.66,NO,1627220002
156,narsaq,60.9167,-46.05,11.12,43,100,1.64,GL,1627220002
157,charlestown,-32.95,151.6667,11.03,58,0,1.34,AU,1627220003
158,trat,12.5,102.5,23.59,93,100,0.91,TH,1627220004
159,manado,1.487,124.8455,26.43,83,40,1.03,ID,1627220005
160,trapani,37.8333,12.6667,38.17,16,0,8.75,IT,1627220006
161,sao joao da barra,-21.6403,-41.0511,24.05,62,0,5.72,BR,1627220006
162,saint-philippe,-21.3585,55.7679,22.77,77,38,5.1,RE,1627220007
163,haines junction,60.7522,-137.5108,8.97,81,100,0.0,CA,1627220008
164,kathmandu,27.7167,85.3167,22.12,100,75,3.09,NP,1627219958
165,norman wells,65.282,-126.8329,9.02,71,40,2.06,CA,1627220009
166,brainerd,46.358,-94.2008,22.14,60,1,4.12,US,1627219930
167,yumen,40.2833,97.2,29.24,23,100,3.59,CN,1627220011
168,straumen,63.8709,11.2999,20.0,60,83,0.78,NO,1627220011
169,camacha,33.0833,-16.3333,23.42,69,75,4.63,PT,1627220012
170,teya,60.3778,92.6267,22.74,58,1,1.66,RU,1627220013
171,vitim,59.4511,112.5578,18.26,56,72,2.35,RU,1627220014
172,antsohihy,-14.8796,47.9875,28.88,32,44,5.72,MG,1627220014
173,kavieng,-2.5744,150.7967,27.17,78,60,2.21,PG,1627220015
174,la esperanza,14.8667,-91.5667,14.74,86,0,0.0,GT,1627220016
175,clyde river,70.4692,-68.5914,2.13,100,90,5.14,CA,1627220017
176,nador,35.174,-2.9287,35.04,23,20,7.2,MA,1627220018
177,keflavik,64.0049,-22.5624,11.4,87,75,12.35,IS,1627220018
178,faya,18.3851,42.4509,24.06,48,87,3.03,SA,1627220015
179,chokurdakh,70.6333,147.9167,1.7,80,0,4.71,RU,1627220009
180,le marin,14.4721,-60.8697,29.99,84,90,2.06,MQ,1627220020
181,tasiilaq,65.6145,-37.6368,7.09,90,65,0.54,GL,1627220021
182,udachnyy,66.4167,112.4,23.78,53,52,2.65,RU,1627220022
183,monrovia,6.3005,-10.7969,28.87,68,87,3.81,LR,1627220023
184,burnie,-41.0667,145.9167,5.51,80,53,7.97,AU,1627220024
185,kaitangata,-46.2817,169.8464,9.96,62,100,1.97,NZ,1627220025
186,yamada,39.4667,141.95,21.62,94,37,1.12,JP,1627220026
187,mackay,-21.15,149.2,13.36,87,3,1.54,AU,1627220026
188,lagoa,39.05,-27.9833,20.7,82,100,6.03,PT,1627220027
189,bluff,-46.6,168.3333,9.17,80,100,4.59,NZ,1627220028
190,saint-georges,12.0564,-61.7485,28.82,84,40,7.72,GD,1627219729
191,naryan-mar,67.6713,53.087,9.19,73,100,7.46,RU,1627220029
192,port hedland,-20.3167,118.5667,18.03,77,14,1.54,AU,1627220030
193,hithadhoo,-0.6,73.0833,27.19,79,60,3.2,MV,1627220028
194,beringovskiy,63.05,179.3167,11.08,90,100,2.48,RU,1627220031
195,codrington,-38.2667,141.9667,10.73,91,94,6.37,AU,1627220032
196,ilulissat,69.2167,-51.1,7.01,87,40,3.09,GL,1627220029
197,coquimbo,-29.9533,-71.3436,8.85,81,0,3.6,CL,1627219931
198,grand baie,-20.0182,57.5802,23.26,64,0,3.58,MU,1627220034
199,kaabong,3.4836,34.1492,18.91,73,100,2.76,UG,1627220035
200,lazaro cardenas,17.9583,-102.2,26.71,84,34,1.7,MX,1627220036
201,luanda,-8.8368,13.2343,26.0,61,40,3.09,AO,1627220036
202,rio gallegos,-51.6226,-69.2181,1.03,80,0,5.14,AR,1627219891
203,namatanai,-3.6667,152.4333,26.19,83,66,1.49,PG,1627220038
204,severo-kurilsk,50.6789,156.125,12.13,97,88,1.55,RU,1627220038
205,hutang,31.5333,119.4833,26.07,95,100,9.02,CN,1627220039
206,namioka,40.7072,140.5894,24.3,95,7,1.36,JP,1627220040
207,mnogovershinnyy,53.9353,139.9242,20.18,91,100,1.49,RU,1627220041
208,san rafael del sur,11.8485,-86.4384,24.54,71,100,4.44,NI,1627219943
209,paamiut,61.994,-49.6678,7.4,58,100,3.07,GL,1627220042
210,ribeira grande,38.5167,-28.7,23.22,78,40,1.54,PT,1627220043
211,labuhan,-6.8844,112.2051,24.34,76,7,3.76,ID,1627220044
212,mount gambier,-37.8333,140.7667,9.95,93,75,4.12,AU,1627220044
213,pesca,5.55,-73.05,10.91,92,100,1.36,CO,1627220045
214,mount isa,-20.7333,139.5,13.87,33,4,1.54,AU,1627219862
215,le port,-20.9373,55.2919,23.0,75,58,2.16,RE,1627220046
216,hobart,-42.8794,147.3294,5.7,77,20,0.89,AU,1627219889
217,dublin,37.7021,-121.9358,16.5,86,1,0.45,US,1627220048
218,salalah,17.0151,54.0924,28.05,83,75,4.12,OM,1627220048
219,beisfjord,68.3751,17.5988,15.03,94,97,1.36,NO,1627220049
220,ust-tsilma,65.441,52.1498,10.71,85,98,3.51,RU,1627220050
221,marawi,7.9986,124.2928,21.64,77,30,1.77,PH,1627220051
222,samana,19.2056,-69.3369,27.12,83,40,0.0,DO,1627219810
223,koronowo,53.3137,17.937,30.17,43,100,4.15,PL,1627220052
224,ekimchan,53.0667,132.9667,16.87,95,1,1.29,RU,1627220053
225,carnarvon,-24.8667,113.6333,16.04,64,0,3.6,AU,1627220054
226,saint-denis,48.9167,2.3333,22.34,80,75,5.14,FR,1627220054
227,tabas,33.5959,56.9244,41.28,5,0,9.22,IR,1627220055
228,san pedro,14.35,121.0167,27.57,87,40,5.14,PH,1627220056
229,aketi,2.7388,23.7833,28.7,59,94,2.74,CD,1627220057
230,moses lake,47.1301,-119.2781,23.38,72,1,0.0,US,1627220057
231,mocuba,-16.8392,36.9856,21.52,52,92,3.6,MZ,1627220058
232,hamilton,39.1834,-84.5333,27.36,88,90,0.45,US,1627220002
233,san juan del sur,11.2529,-85.8705,26.12,89,40,2.06,NI,1627220059
234,katobu,-4.9408,122.5276,21.87,91,5,1.93,ID,1627220060
235,banjar,-8.19,114.9675,25.92,83,28,3.03,ID,1627220061
236,provideniya,64.3833,-173.3,8.26,99,100,3.93,RU,1627220062
237,andradas,-22.0681,-46.5692,19.37,28,0,3.82,BR,1627220062
238,bose,45.4612,8.0137,28.21,68,13,0.81,IT,1627220063
239,manzhouli,49.6,117.4333,15.69,80,28,2.36,CN,1627220064
240,lockhart,28.6194,-81.4426,29.01,78,1,0.45,US,1627220065
241,anadyr,64.75,177.4833,11.28,100,90,1.79,RU,1627220066
242,bandarbeyla,9.4942,50.8122,30.0,46,90,10.71,SO,1627220066
243,buchach,49.0625,25.388,27.66,53,17,5.02,UA,1627220067
244,pasni,25.2631,63.471,27.98,84,26,7.05,PK,1627220068
245,tuktoyaktuk,69.4541,-133.0374,14.0,100,90,2.57,CA,1627220069
246,okha,53.5739,142.9478,21.11,81,100,4.61,RU,1627220069
247,puerto escondido,15.85,-97.0667,25.46,78,20,3.6,MX,1627220070
248,ancud,-41.8697,-73.8203,4.74,78,17,2.89,CL,1627220071
249,lebu,-37.6167,-73.65,10.65,90,94,3.25,CL,1627220072
250,port lincoln,-34.7333,135.8667,13.22,84,11,8.0,AU,1627220073
251,leningradskiy,69.3833,178.4167,2.64,92,100,2.1,RU,1627220009
252,kajaani,64.2273,27.7285,22.03,49,0,5.14,FI,1627220074
253,murray bridge,-35.1167,139.2667,13.57,77,51,6.81,AU,1627220075
254,rocha,-34.4833,-54.3333,17.31,89,100,5.6,UY,1627220035
255,tagusao,9.1924,117.8141,27.93,74,100,3.98,PH,1627220076
256,cobija,-11.0267,-68.7692,25.1,83,4,0.0,BO,1627220077
257,port-gentil,-0.7193,8.7815,27.98,69,40,4.63,GA,1627220077
258,te anau,-45.4167,167.7167,8.63,91,100,1.01,NZ,1627220078
259,hami,42.8,93.45,35.1,13,0,8.88,CN,1627220079
260,pahrump,36.2083,-115.9839,27.92,43,100,1.34,US,1627219966
261,fort frances,48.5999,-93.4003,19.47,68,1,3.09,CA,1627220080
262,umtata,-31.5889,28.7844,19.31,14,0,3.09,ZA,1627220081
263,markova,48.6758,24.4138,26.77,58,82,2.98,UA,1627220082
264,saint-leu,-21.15,55.2833,22.48,74,35,6.06,RE,1627220083
265,jalu,29.0331,21.5482,35.34,19,0,6.5,LY,1627220083
266,alice springs,-23.7,133.8833,11.75,37,53,0.0,AU,1627219886
267,zaraza,9.3503,-65.3245,24.02,95,100,1.67,VE,1627220085
268,dingle,10.9995,122.6711,25.23,88,28,3.46,PH,1627220085
269,bodden town,19.2833,-81.25,30.0,81,20,0.89,KY,1627220086
270,griffith,41.5284,-87.4237,27.16,83,1,0.89,US,1627220087
271,coihaique,-45.5752,-72.0662,1.34,86,20,0.0,CL,1627220088
272,sao felix do xingu,-6.6447,-51.995,32.52,28,100,2.15,BR,1627220088
273,santa rosa,14.3122,121.1114,27.99,86,100,6.75,PH,1627220082
274,goderich,43.7501,-81.7165,22.89,83,0,2.06,CA,1627220090
275,vila velha,-20.3297,-40.2925,22.97,68,75,1.54,BR,1627220091
276,rabo de peixe,37.8,-25.5833,20.73,88,40,5.66,PT,1627220091
277,soyo,-6.1349,12.3689,27.03,73,35,4.34,AO,1627220060
278,cayenne,4.9333,-52.3333,28.94,81,0,0.45,GF,1627219804
279,saldanha,-33.0117,17.9442,23.03,44,100,8.83,ZA,1627220093
280,santa ines,-3.6667,-45.38,30.93,41,90,4.08,BR,1627220094
281,hasaki,35.7333,140.8333,25.22,80,0,5.62,JP,1627220095
282,slave lake,55.2834,-114.769,14.99,67,1,2.06,CA,1627220095
283,christchurch,-43.5333,172.6333,11.67,78,98,1.79,NZ,1627219816
284,kibakwe,-6.7167,36.3667,21.69,41,91,2.44,TZ,1627220097
285,luderitz,-26.6481,15.1594,22.68,26,34,3.01,NA,1627220098
286,san andres,12.5847,-81.7006,28.01,83,90,5.66,CO,1627220099
287,pangnirtung,66.1451,-65.7125,10.09,86,100,2.18,CA,1627220100
288,san quintin,30.4833,-115.95,19.83,86,100,2.15,MX,1627220100
289,union,40.6334,-74.2663,23.57,89,90,2.06,US,1627220101
290,dudinka,69.4058,86.1778,13.95,71,78,3.09,RU,1627220103
291,florida,28.7505,-82.5001,28.38,79,1,0.45,US,1627220104
292,madikeri,12.4167,75.7333,18.12,97,98,1.8,IN,1627220105
293,esperance,-33.8667,121.9,12.91,75,0,8.72,AU,1627220015
294,takoradi,4.8845,-1.7554,26.85,65,67,5.56,GH,1627220106
295,lokomotivnyy,53.0118,60.5684,20.37,53,3,5.16,RU,1627220107
296,khash,28.2211,61.2158,36.99,8,84,5.56,IR,1627220107
297,mogok,22.9167,96.5,19.05,99,97,1.16,MM,1627220108
298,mikkeli,61.6886,27.2723,24.06,46,0,2.06,FI,1627220109
299,jiuquan,39.7432,98.5174,25.83,37,84,3.75,CN,1627220110
300,betafo,-19.8333,46.85,11.07,86,76,3.47,MG,1627220111
301,aitape,-3.1374,142.3475,23.67,89,99,2.85,PG,1627220111
302,alofi,-19.0595,-169.9187,20.94,94,7,1.03,NU,1627220112
303,yulara,-25.2406,130.9889,15.91,36,100,2.57,AU,1627220113
304,kvarkeno,52.0833,59.725,22.31,48,74,2.75,RU,1627220114
305,salinopolis,-0.6136,-47.3561,29.31,63,14,3.63,BR,1627220115
306,chunhuhub,19.55,-88.6833,28.04,68,50,0.77,MX,1627220116
307,dunedin,-45.8742,170.5036,10.45,68,100,6.71,NZ,1627220057
308,nioro,13.35,-15.75,30.44,58,100,3.19,GM,1627220117
309,upernavik,72.7868,-56.1549,5.33,81,83,1.79,GL,1627220118
310,airai,-8.9266,125.4092,13.25,60,8,1.42,TL,1627220013
311,balkanabat,39.5108,54.3671,35.93,41,0,5.83,TM,1627220119
312,syumsi,57.1111,51.6149,17.29,50,84,2.37,RU,1627220120
313,loukhi,66.0764,33.0381,18.86,40,69,4.35,RU,1627220120
314,baruun-urt,46.6806,113.2792,19.81,53,100,7.44,MN,1627220121
315,miraflores,19.2167,-98.8083,15.57,72,6,0.88,MX,1627220122
316,gunjur,13.2019,-16.7339,31.04,66,40,4.12,GM,1627220123
317,wajima,37.4,136.9,26.2,82,1,2.18,JP,1627220123
318,buala,-8.145,159.5921,26.29,83,87,3.03,SB,1627220124
319,acari,-15.4311,-74.6158,19.62,65,85,1.96,PE,1627220125
320,banfora,10.6333,-4.7667,29.86,58,89,3.35,BF,1627220126
321,mandera,3.9366,41.867,30.14,34,100,9.36,KE,1627220126
322,tshikapa,-6.4167,20.8,35.47,17,11,3.46,CD,1627220127
323,juneau,58.3019,-134.4197,13.25,95,75,0.0,US,1627219920
324,sidney,-33.8679,151.2073,10.73,60,0,0.45,AU,1627220035
325,edd,13.9297,41.6925,32.66,52,100,3.37,ER,1627220129
326,cockburn town,21.4612,-71.1419,27.78,80,6,5.17,TC,1627220103
327,kizukuri,40.8061,140.3861,24.41,85,9,2.65,JP,1627220131
328,vung tau,10.346,107.0843,27.42,78,84,7.86,VN,1627220131
329,mahon,39.8885,4.2658,28.31,61,0,7.2,ES,1627220132
330,biltine,14.5333,20.9167,30.17,55,25,6.12,TD,1627220133
331,ishigaki,24.3448,124.1572,29.15,88,100,6.99,JP,1627220134
332,morant bay,17.8815,-76.4093,29.81,67,22,2.21,JM,1627220135
333,raduzhnyy,62.0961,77.475,19.25,85,100,2.2,RU,1627220135
334,san patricio,28.017,-97.5169,29.37,74,4,3.25,US,1627220136
335,hulan ergi,47.2042,123.6333,20.98,96,100,3.56,CN,1627220137
336,thayetmyo,19.3167,95.1833,27.05,77,100,2.46,MM,1627220138
337,acapulco,16.8634,-99.8901,26.9,89,40,2.06,MX,1627220100
338,port shepstone,-30.7414,30.455,18.33,65,0,9.78,ZA,1627220140
339,tautira,-17.7333,-149.15,22.01,69,5,4.11,PF,1627220141
340,la libertad,-2.2333,-80.9,21.81,88,90,3.6,EC,1627220141
341,raymond,43.9015,-70.4703,19.45,94,100,4.58,US,1627220142
342,road town,18.4167,-64.6167,29.02,84,20,5.66,VG,1627219853
343,yar-sale,66.8333,70.8333,14.01,58,100,8.12,RU,1627220144
344,iwanai,42.9744,140.5089,21.53,96,15,2.61,JP,1627220144
345,eseka,3.65,10.7667,24.51,92,91,2.45,CM,1627220145
346,chiredzi,-21.05,31.6667,21.5,27,10,4.03,ZW,1627220146
347,tigil,57.8,158.6667,12.56,95,92,2.15,RU,1627220147
348,avera,33.194,-82.5271,25.95,63,97,1.28,US,1627220147
349,muzhi,65.3667,64.6667,13.89,55,84,3.11,RU,1627220148
350,komsomolskiy,40.4272,71.7189,39.4,15,0,3.09,UZ,1627220149
351,chapais,49.7834,-74.8492,15.88,76,78,4.16,CA,1627220151
352,biak,-0.9131,122.8766,24.16,83,77,2.66,ID,1627220151
353,darhan,49.4867,105.9228,17.97,67,100,1.84,MN,1627220152
354,daru,-9.0763,143.2092,25.16,83,87,6.48,PG,1627220153
355,onokhoy,51.932,108.0747,21.86,65,30,1.51,RU,1627220154
356,leh,34.1667,77.5833,26.29,29,97,2.52,IN,1627220154
357,banda aceh,5.5577,95.3222,27.5,81,99,4.29,ID,1627220155
358,alyangula,-13.8483,136.4192,17.93,88,91,0.0,AU,1627220156
359,sorland,67.667,12.6934,15.04,82,0,4.0,NO,1627220157
360,fort nelson,58.8053,-122.7002,11.77,82,75,2.57,CA,1627220158
361,boyolangu,-8.1181,111.8935,22.54,87,39,0.93,ID,1627220158
362,datong,40.0936,113.2914,25.79,52,97,2.82,CN,1627220159
363,vila franca do campo,37.7167,-25.4333,21.23,69,69,2.93,PT,1627220160
364,akureyri,65.6835,-18.0878,14.96,51,20,6.17,IS,1627220123
365,ulladulla,-35.35,150.4667,11.5,63,100,8.94,AU,1627220161
366,ust-barguzin,53.45,108.9833,14.76,77,62,1.28,RU,1627220162
367,pampierstad,-27.7832,24.6877,17.22,16,0,3.34,ZA,1627220163
368,zyryanovsk,49.7386,84.2719,23.39,57,2,0.99,KZ,1627220164
369,cooma,-36.2333,149.1333,3.87,75,100,6.69,AU,1627220164
370,sfantu gheorghe,45.8667,25.7833,26.57,48,78,2.46,RO,1627220165
371,carballo,43.213,-8.691,22.68,75,71,3.21,ES,1627220166
372,shimoda,34.6667,138.95,27.06,85,1,3.28,JP,1627220167
373,novonukutskiy,53.7002,102.7117,19.78,58,70,1.27,RU,1627220168
374,reguengos de monsaraz,38.4253,-7.5349,30.42,38,46,6.99,PT,1627220168
375,ocean city,39.2776,-74.5746,24.14,80,100,5.36,US,1627220169
376,qinhuangdao,39.9317,119.5883,24.26,88,7,1.49,CN,1627220170
377,muskegon,43.3,-86.1334,24.93,83,1,1.54,US,1627220172
378,kargasok,59.0556,80.8572,23.74,61,16,3.61,RU,1627220172
379,auki,-8.7676,160.7034,25.24,84,87,1.55,SB,1627220173
380,kayseri,38.737,35.4968,29.01,30,20,4.12,TR,1627220174
381,quanzhou,24.9139,118.5858,31.97,83,98,2.64,CN,1627220175
382,nago,26.5881,127.9761,27.47,92,100,5.01,JP,1627220175
383,medicine hat,50.0501,-110.6683,15.76,58,1,1.03,CA,1627220093
384,cherskiy,68.75,161.3,4.59,79,4,3.87,RU,1627220177
385,santa maria,-29.6842,-53.8069,25.61,36,0,9.26,BR,1627219949
386,north bend,43.4065,-124.2243,14.4,94,90,3.09,US,1627220178
387,el alto,-4.2714,-81.2147,18.81,75,78,3.27,PE,1627220179
388,geraldton,-28.7667,114.6,10.23,93,0,3.6,AU,1627220180
389,souillac,-20.5167,57.5167,23.21,64,40,5.14,MU,1627220182
390,la ronge,55.1001,-105.2842,14.14,88,40,3.09,CA,1627220182
391,namibe,-15.1961,12.1522,24.79,45,0,4.0,AO,1627220183
392,westport,41.1415,-73.3579,22.01,84,90,6.26,US,1627220184
393,juiz de fora,-21.7642,-43.3503,19.17,75,0,1.34,BR,1627220185
394,lagos,6.5833,3.75,30.18,58,43,4.32,NG,1627219658
395,half moon bay,37.4636,-122.4286,16.27,89,90,0.89,US,1627220186
396,nelson bay,-32.7167,152.15,12.64,56,0,0.89,AU,1627220187
397,tuatapere,-46.1333,167.6833,8.71,88,100,2.29,NZ,1627220188
398,grindavik,63.8424,-22.4338,11.42,87,75,12.35,IS,1627220188
399,xining,36.6167,101.7667,15.02,92,100,1.39,CN,1627220189
400,kieta,-6.2167,155.6333,25.76,83,98,0.77,PG,1627220190
401,kalabo,-14.97,22.6814,26.34,18,0,5.08,ZM,1627220191
402,sambava,-14.2667,50.1667,21.53,82,98,7.37,MG,1627220191
403,wawa,9.9022,4.4192,30.02,54,98,2.35,NG,1627220192
404,manama,26.2154,50.5832,39.1,53,1,3.09,BH,1627220193
405,labuan,5.2767,115.2417,29.2,84,20,1.03,MY,1627220194
406,wexford,52.3342,-6.4575,26.48,70,14,3.62,IE,1627220195
407,kyren,51.6828,102.1408,17.35,74,76,0.6,RU,1627220195
408,boquira,-12.8231,-42.7306,25.4,42,21,3.07,BR,1627220196
409,bathsheba,13.2167,-59.5167,29.34,79,40,3.6,BB,1627220197
410,ogbomosho,8.133,4.25,31.1,60,96,3.21,NG,1627220198
411,longyearbyen,78.2186,15.6401,6.91,81,75,3.09,SJ,1627220198
412,diu,20.7141,70.9822,25.9,90,100,8.02,IN,1627220199
413,shebalino,51.2917,85.6772,16.75,89,34,1.81,RU,1627220200
414,kalat,29.0225,66.5916,30.74,23,77,4.88,PK,1627220201
415,hare bay,48.8499,-54.0148,15.78,63,75,0.11,CA,1627220202
416,kirkuk,35.4681,44.3922,43.72,10,0,4.23,IQ,1627220134
417,tabou,4.423,-7.3528,26.05,67,91,2.94,CI,1627220203
418,ahipara,-35.1667,173.1667,14.66,95,100,7.44,NZ,1627220204
419,byron bay,-28.65,153.6167,12.15,59,1,4.87,AU,1627220205
420,isangel,-19.55,169.2667,24.19,86,65,1.79,VU,1627220205
421,saint-joseph,-21.3667,55.6167,22.21,74,20,5.64,RE,1627220027
422,susuman,62.7833,148.1667,12.7,97,100,1.88,RU,1627220207
423,plattling,48.7833,12.8667,29.16,55,100,1.37,DE,1627220208
424,arenapolis,-14.4503,-56.8461,32.08,26,0,3.47,BR,1627220208
425,tocopilla,-22.092,-70.1979,17.26,67,100,4.23,CL,1627220209
426,arroyo,41.6096,-4.7969,27.3,36,0,2.06,ES,1627220210
427,hastings,50.8552,0.5729,21.1,83,54,1.44,GB,1627220194
428,okhotsk,59.3833,143.3,13.3,97,100,3.48,RU,1627220211
429,maniitsoq,65.4167,-52.9,7.43,65,100,4.13,GL,1627220212
430,meulaboh,4.1363,96.1285,26.92,80,95,0.28,ID,1627220002
431,cartagena del chaira,1.3349,-74.8429,25.07,76,97,0.21,CO,1627220115
432,macau,22.2006,113.5461,31.1,84,20,4.63,MO,1627220215
433,svodin,47.9105,18.4997,33.77,30,34,4.35,SK,1627220215
434,victoria,22.2855,114.1577,31.23,80,6,2.68,HK,1627220023
435,dong xoai,11.5333,106.9167,23.66,96,28,1.19,VN,1627220217
436,zaysan,47.4667,84.8667,25.43,35,16,3.86,KZ,1627220217
437,sioux lookout,50.1001,-91.917,19.21,72,75,2.57,CA,1627220218
438,waipawa,-41.4122,175.5153,12.24,82,100,4.28,NZ,1627220219
439,vila do maio,15.1333,-23.2167,28.44,72,100,2.89,CV,1627220220
440,brae,60.3964,-1.353,15.95,70,69,0.84,GB,1627220221
441,russkiy aktash,55.0384,52.1214,20.64,36,10,3.57,RU,1627220221
442,kokstad,-30.5472,29.4241,14.9,18,0,1.75,ZA,1627220222
443,lucapa,-8.4192,20.7447,31.09,19,0,3.36,AO,1627220225
444,birjand,32.8663,59.2211,35.26,5,0,10.29,IR,1627220226
445,ingham,42.6,-84.3833,24.86,92,1,3.09,US,1627220226
446,henties bay,-22.116,14.2845,22.76,34,0,4.59,NA,1627220227
447,tilichiki,60.4667,166.1,11.56,98,100,2.01,RU,1627220228
448,doha,25.2867,51.5333,40.17,65,18,5.14,QA,1627220229
449,makakilo city,21.3469,-158.0858,25.18,80,75,0.0,US,1627220230
450,lorengau,-2.0226,147.2712,26.59,82,8,3.76,PG,1627220231
451,anan,33.9167,134.65,26.88,81,74,3.65,JP,1627220232
452,synya,65.3718,58.0387,9.38,92,100,3.81,RU,1627220233
453,thanatpin,17.2119,96.3033,26.1,87,88,3.36,MM,1627220233
454,altagracia de orituco,9.8601,-66.3814,25.58,80,100,1.57,VE,1627220234
455,anqing,30.5092,117.0506,26.25,74,100,5.66,CN,1627220235
456,nome,64.5011,-165.4064,9.04,87,90,4.63,US,1627220236
457,lahaina,20.8783,-156.6825,25.45,95,30,4.31,US,1627220176
458,hereford,52.0568,-2.7148,23.69,61,100,3.07,GB,1627220185
459,san ramon de la nueva oran,-23.1322,-64.326,25.83,33,79,1.07,AR,1627220238
460,manuk mangkaw,4.8,119.85,28.9,77,84,4.76,PH,1627220238
461,prainha,-1.8,-53.48,30.6,49,91,2.13,BR,1627220239
462,pacific grove,36.6177,-121.9166,14.12,93,90,0.45,US,1627219984
463,tam ky,15.5667,108.4833,29.99,68,100,2.97,VN,1627220240
464,atasu,48.6814,71.6433,30.54,29,37,6.39,KZ,1627220241
465,seshcha,53.7361,33.3387,24.05,52,55,3.44,RU,1627220242
466,norilsk,69.3535,88.2027,12.09,93,100,1.68,RU,1627220243
467,los teques,10.3445,-67.0433,24.1,78,100,1.18,VE,1627220244
468,san cristobal,7.7669,-72.225,19.1,91,100,1.68,VE,1627220036
469,san ramon,37.7799,-121.978,16.27,86,1,2.24,US,1627220030
470,horta,38.5333,-28.6333,22.8,78,40,1.54,PT,1627220245
471,poum,-20.2333,164.0167,22.59,76,7,6.71,NC,1627220246
472,sawtell,-30.3833,153.1,10.18,84,0,1.54,AU,1627220247
473,seoul,37.5683,126.9778,29.78,64,0,2.06,KR,1627220248
474,plettenberg bay,-34.0527,23.3716,19.02,36,38,2.06,ZA,1627220248
475,oranjestad,12.524,-70.027,29.97,74,40,9.77,AW,1627220249
476,belmonte,-15.8631,-38.8828,25.28,57,21,4.7,BR,1627220250
477,bundaberg,-24.85,152.35,13.16,52,89,0.45,AU,1627220015
478,samarinda,-0.5,117.15,24.34,89,46,1.77,ID,1627220251
479,zhezkazgan,47.8043,67.7144,34.72,21,0,6.72,KZ,1627220252
480,abonnema,4.7084,6.7931,31.67,41,100,4.56,NG,1627220253
481,narok,-1.0783,35.8601,21.3,45,77,2.47,KE,1627220254
482,muravlenko,63.7898,74.523,16.68,79,100,3.57,RU,1627220255
483,necochea,-38.5473,-58.7368,11.68,91,100,5.04,AR,1627220256
484,talcahuano,-36.7167,-73.1167,11.82,94,75,4.12,CL,1627220257
485,san-pedro,4.7485,-6.6363,26.53,66,100,3.32,CI,1627220258
486,bismarck,46.8083,-100.7837,21.01,68,1,1.54,US,1627220260
487,pinotepa de don luis,16.4167,-97.9167,24.09,78,100,1.04,MX,1627220261
488,mizan teferi,6.9833,35.5833,15.26,99,100,0.92,ET,1627220262
489,bonfim,3.0833,-59.95,28.93,67,65,1.53,BR,1627220262
490,oga,46.4631,10.347,16.56,56,83,3.5,IT,1627220263
491,bouca,6.5105,18.2733,29.72,57,100,2.02,CF,1627220265
492,bolobo,-2.1667,16.2333,34.99,24,11,1.93,CD,1627220266
493,nuuk,64.1835,-51.7216,8.34,76,75,1.03,GL,1627220266
494,baylo,7.8539,126.0581,24.74,89,94,0.06,PH,1627220267
495,fuxin,42.0156,121.6589,24.94,72,92,3.17,CN,1627220268
496,chernaya kholunitsa,58.8511,51.7154,14.56,56,100,2.24,RU,1627220269
497,havelock,34.8791,-76.9013,28.92,76,1,0.89,US,1627220269
498,traverse city,44.7631,-85.6206,22.79,73,1,2.06,US,1627219980
499,champoton,19.35,-90.7167,26.01,70,92,1.83,MX,1627220271
500,mandalgovi,45.7625,106.2708,15.57,82,100,4.19,MN,1627220271
501,delemont,47.3649,7.3445,24.81,82,59,1.24,CH,1627220272
502,chauk,20.8833,94.8167,29.71,64,100,5.23,MM,1627220273
503,kambove,-10.8764,26.5969,22.34,28,1,4.27,CD,1627220274
504,tutoia,-2.7619,-42.2744,30.28,49,45,2.05,BR,1627220274
505,touros,-5.1989,-35.4608,28.5,57,34,8.36,BR,1627220275
506,babati,-4.2167,35.75,25.65,29,28,3.01,TZ,1627220276
507,graaff-reinet,-32.2522,24.5308,21.07,19,8,5.41,ZA,1627220277
508,noumea,-22.2763,166.4572,21.67,99,78,3.1,NC,1627220278
509,pilot butte,50.4668,-104.4178,12.85,79,20,1.03,CA,1627220278
510,atar,20.5169,-13.0499,42.77,15,5,3.26,MR,1627219992
511,valenca do piaui,-6.4075,-41.7456,30.87,28,4,4.74,BR,1627220280
512,natchez,31.5604,-91.4032,27.12,92,40,1.54,US,1627220280
513,denpasar,-8.65,115.2167,25.81,83,20,3.6,ID,1627220281
514,loikaw,19.6742,97.2094,21.45,96,100,1.55,MM,1627220282
515,madaoua,14.073,5.96,34.58,40,28,5.24,NE,1627220283
516,malindi,-3.2175,40.1191,27.09,61,40,10.29,KE,1627220283
517,along,28.1667,94.7667,25.59,99,100,0.18,IN,1627220284
518,bonito,-21.1211,-56.4819,28.63,30,0,5.35,BR,1627220285
519,saint anthony,45.0205,-93.218,23.87,63,1,0.45,US,1627220078
520,high prairie,55.4334,-116.4858,11.61,65,58,3.41,CA,1627220286
521,high rock,26.6208,-78.2833,27.01,74,91,6.3,BS,1627220039
522,raudeberg,61.9875,5.1352,23.78,90,29,3.9,NO,1627220288
523,kununurra,-15.7667,128.7333,18.99,63,35,0.0,AU,1627220009
524,mogadishu,2.0371,45.3438,25.05,75,20,11.17,SO,1627220289
525,mecca,21.4267,39.8261,37.94,19,3,8.66,SA,1627220290
526,viedma,-40.8135,-62.9967,8.71,50,39,2.55,AR,1627220085
527,tomatlan,19.9333,-105.25,25.86,84,84,0.76,MX,1627220291
528,lyuban,52.7985,28.0048,21.24,68,86,1.39,BY,1627220292
529,bonavista,48.6499,-53.1147,16.0,85,62,1.14,CA,1627220293
530,hirara,24.8,125.2833,28.75,89,100,7.77,JP,1627220293
531,russell,32.3502,-85.1999,27.11,83,1,0.0,US,1627220294
532,burns lake,54.2331,-125.7533,4.68,83,100,0.44,CA,1627220295
533,hakkari,37.5833,44.1667,31.88,17,20,5.14,TR,1627220068
534,marzuq,14.4,46.4667,26.28,63,44,4.78,YE,1627220296
535,villaviciosa,43.4813,-5.4357,29.11,69,98,3.16,ES,1627220297
536,padang,-0.9492,100.3543,27.03,84,27,1.82,ID,1627220298
537,matam,15.6175,-13.3303,36.13,36,14,4.69,SN,1627220299
538,la seyne-sur-mer,43.0982,5.8847,35.47,54,80,2.68,FR,1627220299
539,palu,-0.8917,119.8707,25.02,95,79,1.21,ID,1627220300
540,talmenka,53.8183,83.5677,29.69,62,43,2.03,RU,1627220301
541,tamworth,52.634,-1.6959,24.23,64,100,1.79,GB,1627220110
542,perth,-31.9333,115.8333,17.81,77,75,4.12,AU,1627220302
543,yabrud,33.9674,36.6574,31.81,20,2,4.56,SY,1627220303
544,paraiso,9.8383,-83.8656,19.42,87,100,1.41,CR,1627220304
545,veraval,20.9,70.3667,26.44,89,100,7.65,IN,1627220305
546,novyy urgal,51.0736,132.5642,20.28,89,100,0.52,RU,1627220305
547,tongren,27.7172,109.1853,24.66,87,1,1.15,CN,1627220307
